{
  "type": "FeatureCollection",
  "features": [
    {
      "type": "Feature",
      "properties": { "name": "Alperton", "line": "" },
      "geometry": { "type": "Point", "coordinates": [-0.3000963, 51.5408036] }
    },
    {
      "type": "Feature",
      "properties": { "name": "Arnos Grove", "line": "" },
      "geometry": { "type": "Point", "coordinates": [-0.1330981, 51.6164256] }
    },
    {
      "type": "Feature",
      "properties": { "name": "Baker Street", "line": "" },
      "geometry": { "type": "Point", "coordinates": [-0.157096, 51.522556] }
    },
    {
      "type": "Feature",
      "properties": { "name": "Bank", "line": "" },
      "geometry": { "type": "Point", "coordinates": [-0.091033, 51.513307] }
    },
    {
      "type": "Feature",
      "properties": { "name": "Barbican", "line": "" },
      "geometry": { "type": "Point", "coordinates": [-0.098489, 51.520184] }
    },
    {
      "type": "Feature",
      "properties": { "name": "Barking", "line": "" },
      "geometry": { "type": "Point", "coordinates": [0.075516, 51.536216] }
    },
    {
      "type": "Feature",
      "properties": { "name": "Bayswater", "line": "" },
      "geometry": { "type": "Point", "coordinates": [-0.190394, 51.510073] }
    },
    {
      "type": "Feature",
      "properties": { "name": "Blackhorse Road", "line": "" },
      "geometry": { "type": "Point", "coordinates": [-0.033345, 51.582301] }
    },
    {
      "type": "Feature",
      "properties": { "name": "Bond Street", "line": "" },
      "geometry": { "type": "Point", "coordinates": [-0.149539, 51.514039] }
    },
    {
      "type": "Feature",
      "properties": { "name": "Bounds Green", "line": "" },
      "geometry": { "type": "Point", "coordinates": [-0.13247, 51.598989] }
    },
    {
      "type": "Feature",
      "properties": { "name": "Brentwood", "line": "" },
      "geometry": { "type": "Point", "coordinates": [0.305, 51.6233] }
    },
    {
      "type": "Feature",
      "properties": { "name": "Brixton", "line": "" },
      "geometry": { "type": "Point", "coordinates": [-0.114964, 51.462094] }
    },
    {
      "type": "Feature",
      "properties": { "name": "Bromley-by-Bow", "line": "" },
      "geometry": { "type": "Point", "coordinates": [-0.011172, 51.524817] }
    },
    {
      "type": "Feature",
      "properties": { "name": "Caledonian Road", "line": "" },
      "geometry": { "type": "Point", "coordinates": [-0.112068, 51.548514] }
    },
    {
      "type": "Feature",
      "properties": { "name": "Camden Town", "line": "" },
      "geometry": { "type": "Point", "coordinates": [-0.14259, 51.539045] }
    },
    {
      "type": "Feature",
      "properties": { "name": "Canning Town", "line": "" },
      "geometry": { "type": "Point", "coordinates": [0.014959, 51.514044] }
    },
    {
      "type": "Feature",
      "properties": { "name": "Canons Park", "line": "" },
      "geometry": { "type": "Point", "coordinates": [-0.29951, 51.60794] }
    },
    {
      "type": "Feature",
      "properties": { "name": "Chancery Lane", "line": "" },
      "geometry": { "type": "Point", "coordinates": [-0.111021, 51.517833] }
    },
    {
      "type": "Feature",
      "properties": { "name": "Clapham Common", "line": "" },
      "geometry": { "type": "Point", "coordinates": [-0.13878, 51.46254] }
    },
    {
      "type": "Feature",
      "properties": { "name": "Clapham South", "line": "" },
      "geometry": { "type": "Point", "coordinates": [-0.14208, 51.4594] }
    },
    {
      "type": "Feature",
      "properties": { "name": "Cockfosters", "line": "" },
      "geometry": { "type": "Point", "coordinates": [-0.1611, 51.6553] }
    },
    {
      "type": "Feature",
      "properties": { "name": "Colindale", "line": "" },
      "geometry": { "type": "Point", "coordinates": [-0.2356, 51.5884] }
    },
    {
      "type": "Feature",
      "properties": { "name": "Dagenham East", "line": "" },
      "geometry": { "type": "Point", "coordinates": [0.1575, 51.536] }
    },
    {
      "type": "Feature",
      "properties": { "name": "Ealing Broadway", "line": "" },
      "geometry": { "type": "Point", "coordinates": [-0.3011, 51.5143] }
    },
    {
      "type": "Feature",
      "properties": { "name": "Earls Court", "line": "" },
      "geometry": { "type": "Point", "coordinates": [-0.194, 51.4941] }
    },
    {
      "type": "Feature",
      "properties": { "name": "East Ham", "line": "" },
      "geometry": { "type": "Point", "coordinates": [0.048, 51.528] }
    },
    {
      "type": "Feature",
      "properties": { "name": "Edgware", "line": "" },
      "geometry": { "type": "Point", "coordinates": [-0.277, 51.614] }
    },
    {
      "type": "Feature",
      "properties": { "name": "Edgware Road (Bakerloo)", "line": "" },
      "geometry": { "type": "
