{"type": "FeatureCollection", "features": [{"type": "Feature", "properties": {"name": "Alperton", "line": ""}, "geometry": {"type": "Point", "coordinates": [-0.3000963, 51.5408036]}}, {"type": "Feature", "properties": {"name": "Arnos Grove", "line": ""}, "geometry": {"type": "Point", "coordinates": [-0.1330981, 51.6164256]}}, {"type": "Feature", "properties": {"name": "Baker Street", "line": ""}, "geometry": {"type": "Point", "coordinates": [-0.1567349, 51.5225862]}}, {"type": "Feature", "properties": {"name": "Bank", "line": ""}, "geometry": {"type": "Point", "coordinates": [-0.0893749, 51.5131048]}}, {"type": "Feature", "properties": {"name": "Barbican", "line": ""}, "geometry": {"type": "Point", "coordinates": [-0.0986832, 51.5201501]}}, {"type": "Feature", "properties": {"name": "Barking", "line": ""}, "geometry": {"type": "Point", "coordinates": [0.0793235, 51.5402677]}}, {"type": "Feature", "properties": {"name": "Bayswater", "line": ""}, "geometry": {"type": "Point", "coordinates": [-0.1883854, 51.5122764]}}, {"type": "Feature", "properties": {"name": "Blackhorse Road", "line": ""}, "geometry": {"type": "Point", "coordinates": [-0.0416453, 51.5867174]}}, {"type": "Feature", "properties": {"name": "Bond Street", "line": ""}, "geometry": {"type": "Point", "coordinates": [-0.1494231, 51.5139808]}}, {"type": "Feature", "properties": {"name": "Bounds Green", "line": ""}, "geometry": {"type": "Point", "coordinates": [-0.1249047, 51.607376]}}, {"type": "Feature", "properties": {"name": "Brixton", "line": ""}, "geometry": {"type": "Point", "coordinates": [-0.1147325, 51.4626818]}}, {"type": "Feature", "properties": {"name": "Bromley-by-Bow", "line": ""}, "geometry": {"type": "Point", "coordinates": [-0.0123189, 51.5246287]}}, {"type": "Feature", "properties": {"name": "Caledonian Road", "line": ""}, "geometry": {"type": "Point", "coordinates": [-0.1183585, 51.548482]}}, {"type": "Feature", "properties": {"name": "Camden Town", "line": ""}, "geometry": {"type": "Point", "coordinates": [-0.1426957, 51.5394397]}}, {"type": "Feature", "properties": {"name": "Canning Town", "line": ""}, "geometry": {"type": "Point", "coordinates": [0.0082987, 51.5139887]}}, {"type": "Feature", "properties": {"name": "Canons Park", "line": ""}, "geometry": {"type": "Point", "coordinates": [-0.2947453, 51.6080065]}}, {"type": "Feature", "properties": {"name": "Chancery Lane", "line": ""}, "geometry": {"type": "Point", "coordinates": [-0.1117642, 51.5181738]}}, {"type": "Feature", "properties": {"name": "Clapham Common", "line": ""}, "geometry": {"type": "Point", "coordinates": [-0.1373589, 51.4620748]}}, {"type": "Feature", "properties": {"name": "Clapham South", "line": ""}, "geometry": {"type": "Point", "coordinates": [-0.1475523, 51.4528372]}}, {"type": "Feature", "properties": {"name": "Cockfosters", "line": ""}, "geometry": {"type": "Point", "coordinates": [-0.1485149, 51.651366]}}, {"type": "Feature", "properties": {"name": "Colindale", "line": ""}, "geometry": {"type": "Point", "coordinates": [-0.2499296, 51.5954091]}}, {"type": "Feature", "properties": {"name": "Dagenham East", "line": ""}, "geometry": {"type": "Point", "coordinates": [0.1649496, 51.544018]}}, {"type": "Feature", "properties": {"name": "Ealing Broadway", "line": ""}, "geometry": {"type": "Point", "coordinates": [-0.3004067, 51.5149803]}}, {"type": "Feature", "properties": {"name": "East Ham", "line": ""}, "geometry": {"type": "Point", "coordinates": [0.0526042, 51.5394005]}}, {"type": "Feature", "properties": {"name": "Edgware", "line": ""}, "geometry": {"type": "Point", "coordinates": [-0.2749555, 51.6136623]}}, {"type": "Feature", "properties": {"name": "Embankment", "line": ""}, "geometry": {"type": "Point", "coordinates": [-0.1222409, 51.5072143]}}, {"type": "Feature", "properties": {"name": "Epping", "line": ""}, "geometry": {"type": "Point", "coordinates": [0.1139888, 51.6936318]}}, {"type": "Feature", "properties": {"name": "Finchley Central", "line": ""}, "geometry": {"type": "Point", "coordinates": [-0.192318, 51.6008355]}}, {"type": "Feature", "properties": {"name": "Forest Gate", "line": ""}, "geometry": {"type": "Point", "coordinates": [0.0232808, 51.549251]}}, {"type": "Feature", "properties": {"name": "Gospel Oak", "line": ""}, "geometry": {"type": "Point", "coordinates": [-0.151577, 51.5554865]}}, {"type": "Feature", "properties": {"name": "Green Park", "line": ""}, "geometry": {"type": "Point", "coordinates": [-0.1429113, 51.5066192]}}, {"type": "Feature", "properties": {"name": "Gunnersbury", "line": ""}, "geometry": {"type": "Point", "coordinates": [-0.2755244, 51.4913757]}}, {"type": "Feature", "properties": {"name": "Hanger Lane", "line": ""}, "geometry": {"type": "Point", "coordinates": [-0.2936453, 51.5303098]}}, {"type": "Feature", "properties": {"name": "Harlesden", "line": ""}, "geometry": {"type": "Point", "coordinates": [-0.257833, 51.5363567]}}, {"type": "Feature", "properties": {"name": "Heathrow Terminal 5", "line": ""}, "geometry": {"type": "Point", "coordinates": [-0.4877331, 51.472515]}}, {"type": "Feature", "properties": {"name": "High Barnet", "line": ""}, "geometry": {"type": "Point", "coordinates": [-0.1938826, 51.650399]}}, {"type": "Feature", "properties": {"name": "Highbury & Islington", "line": ""}, "geometry": {"type": "Point", "coordinates": [-0.1036544, 51.5463679]}}, {"type": "Feature", "properties": {"name": "Holborn", "line": ""}, "geometry": {"type": "Point", "coordinates": [-0.1200657, 51.5171149]}}, {"type": "Feature", "properties": {"name": "Holland park", "line": ""}, "geometry": {"type": "Point", "coordinates": [-0.2055243, 51.5071908]}}, {"type": "Feature", "properties": {"name": "Kennington", "line": ""}, "geometry": {"type": "Point", "coordinates": [-0.1058829, 51.4882861]}}, {"type": "Feature", "properties": {"name": "Kings Cross St. Pancras", "line": ""}, "geometry": {"type": "Point", "coordinates": [-0.1239491, 51.530609]}}, {"type": "Feature", "properties": {"name": "Leicester Square", "line": ""}, "geometry": {"type": "Point", "coordinates": [-0.1282641, 51.5114642]}}, {"type": "Feature", "properties": {"name": "Liverpool Street", "line": ""}, "geometry": {"type": "Point", "coordinates": [-0.0825205, 51.5176777]}}, {"type": "Feature", "properties": {"name": "London Bridge", "line": ""}, "geometry": {"type": "Point", "coordinates": [-0.0851473, 51.5048764]}}, {"type": "Feature", "properties": {"name": "Mansion House", "line": ""}, "geometry": {"type": "Point", "coordinates": [-0.0952228, 51.5118924]}}, {"type": "Feature", "properties": {"name": "Marble Arch", "line": ""}, "geometry": {"type": "Point", "coordinates": [-0.1582531, 51.513435]}}, {"type": "Feature", "properties": {"name": "Moorgate", "line": ""}, "geometry": {"type": "Point", "coordinates": [-0.0890625, 51.5182516]}}, {"type": "Feature", "properties": {"name": "Morden", "line": ""}, "geometry": {"type": "Point", "coordinates": [-0.1947552, 51.4027615]}}, {"type": "Feature", "properties": {"name": "Mornington Crescent", "line": ""}, "geometry": {"type": "Point", "coordinates": [-0.1380918, 51.5340608]}}, {"type": "Feature", "properties": {"name": "North Greenwich", "line": ""}, "geometry": {"type": "Point", "coordinates": [0.0043201, 51.500574]}}, {"type": "Feature", "properties": {"name": "Northwick Park", "line": ""}, "geometry": {"type": "Point", "coordinates": [-0.3176997, 51.578491]}}, {"type": "Feature", "properties": {"name": "Osterley", "line": ""}, "geometry": {"type": "Point", "coordinates": [-0.3518348, 51.4815507]}}, {"type": "Feature", "properties": {"name": "Oval", "line": ""}, "geometry": {"type": "Point", "coordinates": [-0.1123953, 51.4818339]}}, {"type": "Feature", "properties": {"name": "Oxford Circus", "line": ""}, "geometry": {"type": "Point", "coordinates": [-0.1419563, 51.5154418]}}, {"type": "Feature", "properties": {"name": "Paddington", "line": ""}, "geometry": {"type": "Point", "coordinates": [-0.175365, 51.5154795]}}, {"type": "Feature", "properties": {"name": "Putney Bridge", "line": ""}, "geometry": {"type": "Point", "coordinates": [-0.2087947, 51.4682995]}}, {"type": "Feature", "properties": {"name": "Queens Park", "line": ""}, "geometry": {"type": "Point", "coordinates": [-0.2054958, 51.533873]}}, {"type": "Feature", "properties": {"name": "Queensbury", "line": ""}, "geometry": {"type": "Point", "coordinates": [-0.286181, 51.5941903]}}, {"type": "Feature", "properties": {"name": "Seven Sisters", "line": ""}, "geometry": {"type": "Point", "coordinates": [-0.0749325, 51.5824738]}}, {"type": "Feature", "properties": {"name": "Sloane Square", "line": ""}, "geometry": {"type": "Point", "coordinates": [-0.1558767, 51.4922264]}}, {"type": "Feature", "properties": {"name": "South Harrow", "line": ""}, "geometry": {"type": "Point", "coordinates": [-0.3522211, 51.5646517]}}, {"type": "Feature", "properties": {"name": "South Wimbledon", "line": ""}, "geometry": {"type": "Point", "coordinates": [-0.1926457, 51.4151759]}}, {"type": "Feature", "properties": {"name": "Southwark", "line": ""}, "geometry": {"type": "Point", "coordinates": [-0.1049663, 51.503925]}}, {"type": "Feature", "properties": {"name": "St. James's Park", "line": ""}, "geometry": {"type": "Point", "coordinates": [-0.1345942, 51.4992816]}}, {"type": "Feature", "properties": {"name": "Stamford Hill", "line": ""}, "geometry": {"type": "Point", "coordinates": [-0.0762903, 51.5748867]}}, {"type": "Feature", "properties": {"name": "Stepney Green", "line": ""}, "geometry": {"type": "Point", "coordinates": [-0.0467147, 51.5217026]}}, {"type": "Feature", "properties": {"name": "Stratford", "line": ""}, "geometry": {"type": "Point", "coordinates": [-0.0035472, 51.541289]}}, {"type": "Feature", "properties": {"name": "Tooting Broadway", "line": ""}, "geometry": {"type": "Point", "coordinates": [-0.1682905, 51.4277387]}}, {"type": "Feature", "properties": {"name": "Tottenham Court Road", "line": ""}, "geometry": {"type": "Point", "coordinates": [-0.1305125, 51.5159715]}}, {"type": "Feature", "properties": {"name": "Tower Hill", "line": ""}, "geometry": {"type": "Point", "coordinates": [-0.0766986, 51.5098481]}}, {"type": "Feature", "properties": {"name": "Twickenham", "line": ""}, "geometry": {"type": "Point", "coordinates": [-0.3288402, 51.4505786]}}, {"type": "Feature", "properties": {"name": "Victoria", "line": ""}, "geometry": {"type": "Point", "coordinates": [-0.1431522, 51.4963688]}}, {"type": "Feature", "properties": {"name": "Walthamstow Central", "line": ""}, "geometry": {"type": "Point", "coordinates": [-0.0199941, 51.582893]}}, {"type": "Feature", "properties": {"name": "Warwick Avenue", "line": ""}, "geometry": {"type": "Point", "coordinates": [-0.1833083, 51.5229834]}}, {"type": "Feature", "properties": {"name": "Waterloo", "line": ""}, "geometry": {"type": "Point", "coordinates": [-0.1139812, 51.5030015]}}, {"type": "Feature", "properties": {"name": "Wembley Central", "line": ""}, "geometry": {"type": "Point", "coordinates": [-0.2966751, 51.5523278]}}, {"type": "Feature", "properties": {"name": "Wembley Park", "line": ""}, "geometry": {"type": "Point", "coordinates": [-0.2800532, 51.5636297]}}, {"type": "Feature", "properties": {"name": "West Drayton", "line": ""}, "geometry": {"type": "Point", "coordinates": [-0.4718293, 51.5097364]}}, {"type": "Feature", "properties": {"name": "West Ruislip", "line": ""}, "geometry": {"type": "Point", "coordinates": [-0.4370447, 51.5695047]}}, {"type": "Feature", "properties": {"name": "Willesden Junction", "line": ""}, "geometry": {"type": "Point", "coordinates": [-0.2435041, 51.5321956]}}, {"type": "Feature", "properties": {"name": "Wimbledon Park", "line": ""}, "geometry": {"type": "Point", "coordinates": [-0.1990432, 51.4340563]}}, {"type": "Feature", "properties": {"name": "Wood Green", "line": ""}, "geometry": {"type": "Point", "coordinates": [-0.1097795, 51.597416]}}, {"type": "Feature", "properties": {"name": "Earls Court", "line": ""}, "geometry": {"type": "Point", "coordinates": [-0.193903, 51.4916123]}}, {"type": "Feature", "properties": {"name": "Edgware Road(Bakerloo)", "line": ""}, "geometry": {"type": "Point", "coordinates": [-0.1667636, 51.5201935]}}, {"type": "Feature", "properties": {"name": "Hammersmith(District)", "line": ""}, "geometry": {"type": "Point", "coordinates": [-0.2250607, 51.494109]}}, {"type": "Feature", "properties": {"name": "Hammersmith(H&C)", "line": ""}, "geometry": {"type": "Point", "coordinates": [-0.2250607, 51.494109]}}, {"type": "Feature", "properties": {"name": "Harrow Weald", "line": ""}, "geometry": {"type": "Point", "coordinates": [-0.3348748, 51.5922178]}}]}
